City,Lat,Lng,Max_Temp,Cloudiness,Humidity,Wind_Speed,country,date
busselton,-33.65,115.33,289.26,1,67,4.92,AU,1603147753
kapaa,22.08,-159.32,302.59,40,78,7.2,US,1603147753
khatanga,71.97,102.5,260.35,33,96,0.28,RU,1603147753
brae,60.4,-1.35,281.15,100,87,17,GB,1603147753
port elizabeth,-33.92,25.57,289.15,75,87,6.2,ZA,1603147486
chicama,-7.84,-79.15,292.28,49,72,3.07,PE,1603147753
ushuaia,-54.8,-68.3,277.15,75,86,19.5,AR,1603147601
sola,-13.88,167.55,299.89,54,79,7.71,VU,1603147753
malumfashi,11.79,7.62,297.13,0,35,2.41,NG,1603147754
bardiyah,31.76,25.09,296.06,75,75,3.43,LY,1603147613
komsomolskiy,40.43,71.72,283.15,0,41,3.1,UZ,1603147462
matara,5.95,80.54,298.62,83,88,4.69,LK,1603147702
geraldton,-28.77,114.6,292.15,90,72,3.6,AU,1603147466
chokurdakh,70.63,147.92,264.1,93,98,2.96,RU,1603147754
coihaique,-45.58,-72.07,281.15,75,49,2.1,CL,1603147754
jamestown,42.1,-79.24,283.71,90,100,2.6,US,1603147754
vaini,-21.2,-175.2,297.15,75,73,4.6,TO,1603147754
rikitea,-23.12,-134.97,296.72,0,78,5.33,PF,1603147680
shimoda,34.67,138.95,285.37,97,79,5.96,JP,1603147721
emba,48.83,58.14,283.08,0,45,4.04,KZ,1603147754
mehamn,71.04,27.85,276.58,100,77,5.05,NO,1603147467
hobart,-42.88,147.33,287.04,75,71,3.6,AU,1603147646
east london,-33.02,27.91,291.93,21,85,4.76,ZA,1603147720
alice springs,-23.7,133.88,292.15,35,82,4.1,AU,1603147550
hobyo,5.35,48.53,299.86,15,77,7.29,SO,1603147754
maniitsoq,65.42,-52.9,276.29,100,89,13.2,GL,1603147754
thompson,55.74,-97.86,272.15,90,68,3.1,CA,1603147754
taolanaro,,,,,,,,
gat,31.61,34.76,296.48,16,78,2.1,IL,1603147568
ust-bolsheretsk,,,,,,,,
trairi,-3.28,-39.27,299.24,28,77,5.71,BR,1603147754
meyungs,,,,,,,,
teguldet,57.31,88.17,272.75,100,98,5.17,RU,1603147754
port lincoln,-34.73,135.87,287.84,100,80,5.68,AU,1603147477
tiksi,71.69,128.87,263.4,100,93,10.29,RU,1603147470
berlevag,70.86,29.09,274.15,40,86,5.7,NO,1603147718
new norfolk,-42.78,147.06,287.04,53,55,3.13,AU,1603147754
san jeronimo de tunan,,,,,,,,
punta arenas,-53.15,-70.92,278.15,20,71,14.9,CL,1603147754
yellowknife,62.46,-114.35,271.15,75,68,2.1,CA,1603147741
bolungarvik,,,,,,,,
castro,-24.79,-50.01,290.58,13,89,2.93,BR,1603147754
tasiilaq,65.61,-37.64,273.15,51,91,7.2,GL,1603147754
mataura,-46.19,168.86,282.04,59,87,3.13,NZ,1603147754
azangaro,-14.92,-70.22,283.97,87,54,2.67,PE,1603147755
amapa,1,-52,301.55,61,47,2.58,BR,1603147755
okhotsk,59.38,143.3,267.37,14,80,10.82,RU,1603147755
pochutla,15.74,-96.47,304.15,20,66,3.6,MX,1603147755
saint george,37.1,-113.58,304.82,1,10,3.1,US,1603147720
hermanus,-34.42,19.23,287.04,100,85,1.79,ZA,1603147755
necochea,-38.55,-58.74,284.82,14,58,3.58,AR,1603147575
samarai,-10.62,150.67,300.18,18,83,3.83,PG,1603147755
nikolskoye,59.7,30.79,275.37,90,93,3,RU,1603147755
jonava,55.08,24.28,277.15,46,86,3.1,LT,1603147755
leningradskiy,69.38,178.42,270.44,96,91,3.05,RU,1603147688
temaraia,,,,,,,,
barentsburg,,,,,,,,
pampas,-12.4,-74.9,285.74,21,66,2.96,PE,1603147755
torbay,47.67,-52.73,284.26,40,87,3.6,CA,1603147755
general roca,-39.03,-67.58,294.15,0,21,6.2,AR,1603147621
carnarvon,-24.87,113.63,293.15,90,82,5.1,AU,1603147463
xingcheng,40.62,120.72,286.2,0,48,4.57,CN,1603147755
saldanha,-33.01,17.94,288.15,100,72,1.5,ZA,1603147466
husavik,66.04,-17.34,274.15,75,86,1.22,IS,1603147479
presidencia roque saenz pena,-26.79,-60.44,304.27,22,44,3.4,AR,1603147755
tura,25.52,90.22,294.98,0,89,1.47,IN,1603147755
mangrol,21.12,70.12,301.09,47,81,2.94,IN,1603147509
taseyevo,57.22,94.9,271.46,100,93,2.88,RU,1603147755
itarema,-2.92,-39.92,299.28,6,78,8.23,BR,1603147679
general cepeda,25.38,-101.45,299.75,0,19,7.55,MX,1603147755
tuktoyaktuk,69.45,-133.04,270.15,90,92,3.1,CA,1603147755
minsk,53.9,27.57,275.15,87,93,4,BY,1603147740
gloversville,43.05,-74.34,284.82,90,100,1.43,US,1603147755
albany,42.6,-73.97,287.59,100,77,2,US,1603147475
aljezur,37.32,-8.8,293.15,100,94,4.92,PT,1603147755
kamenka,51.32,42.77,277.77,67,85,3.14,RU,1603147755
sinnamary,5.38,-52.95,300.43,53,81,5.32,GF,1603147719
puerto ayora,-0.74,-90.35,294.82,97,87,2.24,EC,1603147755
ostrovnoy,68.05,39.51,275.17,91,82,6.9,RU,1603147755
ayan,56.45,138.17,271.12,42,80,6.35,RU,1603147578
barrow,71.29,-156.79,267.15,90,85,5.1,US,1603147701
lodja,-3.48,23.43,293.96,74,96,0.7,CD,1603147756
egvekinot,66.32,-179.17,270.87,35,97,1.95,RU,1603147756
jujuy,,,,,,,,
hilo,19.73,-155.09,303.15,20,55,5.1,US,1603147756
mahebourg,-20.41,57.7,296.15,40,78,4.6,MU,1603147756
bilma,18.69,12.92,300.6,0,16,2.7,NE,1603147756
pisco,-13.7,-76.22,293.15,1,68,8.7,PE,1603147756
parrita,9.52,-84.32,293.15,75,93,2.6,CR,1603147756
bengkulu,-3.8,102.27,297.64,100,83,1.44,ID,1603147683
mikhaylovskoye,51.82,79.72,276.11,86,69,4.95,RU,1603147756
stamsund,,,,,,,,
saurimo,-9.66,20.39,292.58,1,76,1.94,AO,1603147756
manicore,-5.81,-61.3,299.46,96,77,1.06,BR,1603147756
lavrentiya,65.58,-171,275.27,8,74,2.19,RU,1603147756
bredasdorp,-34.53,20.04,288.15,100,62,3.6,ZA,1603147756
artesia,33.87,-118.08,299.82,1,64,3.6,US,1603147620
klichka,50.45,118,272.13,100,96,1.42,RU,1603147756
upernavik,72.79,-56.15,273.6,9,91,5.22,GL,1603147756
deputatskiy,69.3,139.9,260.71,98,95,1.94,RU,1603147756
port hardy,50.7,-127.42,285.15,75,71,3.6,CA,1603147710
hermiston,45.84,-119.29,292.59,1,42,10.8,US,1603147756
mount gambier,-37.83,140.77,283.15,90,100,2.1,AU,1603147500
longonjo,-12.91,15.25,292.75,24,81,1.27,AO,1603147756
fairbanks,64.84,-147.72,267.15,90,85,2.1,US,1603147532
kruisfontein,-34,24.73,289.26,100,80,1.79,ZA,1603147721
horsham,51.06,-0.33,286.15,100,66,4.1,GB,1603147756
oktyabrskiy,54.48,53.47,277.98,61,84,1.35,RU,1603147756
amderma,,,,,,,,
thisted,56.96,8.69,282.04,100,79,0.45,DK,1603147756
sentyabrskiy,,,,,,,,
polovinnoye,54.79,65.99,282.28,100,65,2.23,RU,1603147756
ponta do sol,32.67,-17.1,294.15,75,83,4.6,PT,1603147756
chapada dos guimaraes,-15.46,-55.75,303.15,96,51,3.1,BR,1603147756
airai,-8.93,125.41,293.95,4,48,0.83,TL,1603147756
santa isabel,-23.32,-46.22,294.15,90,88,1.5,BR,1603147565
dingle,11,122.67,298.84,100,88,0.44,PH,1603147757
miranorte,,,,,,,,
tacuarembo,-31.73,-55.98,296.78,0,79,0.8,UY,1603147757
cape town,-33.93,18.42,288.15,40,93,3.1,ZA,1603147126
kodinsk,58.69,99.18,269.74,100,95,4.55,RU,1603147757
avarua,-21.21,-159.78,299.15,10,78,3.1,CK,1603147757
coro,11.4,-69.67,300.6,81,82,4.91,VE,1603147757
syntul,55,41.3,275.8,38,82,4.61,RU,1603147757
phek,25.67,94.5,287.25,69,100,0.87,IN,1603147757
camacha,33.08,-16.33,294.15,40,83,4.1,PT,1603147757
zeya,53.75,127.27,270.63,77,92,2.42,RU,1603147757
kaitangata,-46.28,169.85,285.02,68,51,5.6,NZ,1603147757
narsaq,60.92,-46.05,274.15,96,81,3.1,GL,1603147709
hithadhoo,-0.6,73.08,301.31,96,77,5.85,MV,1603147757
alofi,-19.06,-169.92,300.15,75,65,7.7,NU,1603147757
bethel,41.37,-73.41,287.59,1,82,1.5,US,1603147718
yomitan,,,,,,,,
nanortalik,60.14,-45.24,275.72,98,89,0.56,GL,1603147757
kavaratti,10.57,72.64,300.22,95,74,5.26,IN,1603147757
miraflores,19.22,-98.81,297.15,75,27,5.7,MX,1603147757
dikson,73.51,80.55,268.79,99,95,7.8,RU,1603147757
mar del plata,-38,-57.56,287.15,85,44,7.2,AR,1603147459
luderitz,-26.65,15.16,287.98,0,71,10.55,NA,1603147477
sorland,67.67,12.69,277.22,62,66,1.07,NO,1603147513
belen,36.49,36.22,295.15,40,83,3.1,TR,1603147757
butaritari,3.07,172.79,301.08,67,77,4.83,KI,1603147757
lagoa,39.05,-27.98,290.72,31,70,14.13,PT,1603147757
attawapiskat,,,,,,,,
lolua,,,,,,,,
muscat,23.61,58.59,296.15,22,60,1,OM,1603147603
praia,14.92,-23.51,301.15,89,65,5.1,CV,1603147757
tsihombe,,,,,,,,
rio grande,-32.03,-52.1,293.17,43,80,4.38,BR,1603147580
provideniya,64.38,-173.3,273.15,20,78,2,RU,1603147474
saint-philippe,-21.36,55.77,294.15,20,64,2.1,RE,1603147757
kalabo,-14.97,22.68,295.68,0,19,2.29,ZM,1603147757
lebu,-37.62,-73.65,284.12,0,71,5.82,CL,1603147758
bartica,6.4,-58.62,301.15,20,78,3.1,GY,1603147758
ust-kuyga,70.02,135.6,261.67,99,95,3.21,RU,1603147758
verkhoyansk,67.54,133.38,261.17,100,90,1.45,RU,1603147758
basco,20.45,121.97,301.21,100,78,15.76,PH,1603147758
omsukchan,62.53,155.8,268.98,100,95,0.89,RU,1603147758
cockburn town,21.46,-71.14,300.99,64,75,5.04,TC,1603147547
jamundi,3.26,-76.53,299.15,75,57,4.6,CO,1603147758
marquette,46.53,-87.63,275.93,100,64,0.72,US,1603147758
lom sak,16.78,101.24,293.44,100,92,2.17,TH,1603147758
ruatoria,,,,,,,,
ahuimanu,21.44,-157.84,302.15,75,74,3.1,US,1603147758
pevek,69.7,170.31,269.3,0,94,6.63,RU,1603147758
saint-pierre,-21.34,55.48,294.15,20,64,2.1,RE,1603147758
georgetown,5.41,100.34,300.15,20,94,1.5,MY,1603147758
puerto escondido,15.85,-97.07,303.15,40,66,2.1,MX,1603147758
belushya guba,,,,,,,,
tomatlan,19.93,-105.25,302.65,18,75,3.49,MX,1603147679
claresholm,50.03,-113.59,280.15,100,98,9.3,CA,1603147758
seguela,7.96,-6.67,295.35,19,94,0.94,CI,1603147758
port alfred,-33.59,26.89,290.86,64,81,9.38,ZA,1603147758
bela,25.93,81.98,296.56,45,58,1.4,IN,1603147501
grande-riviere,,,,,,,,
galgani,,,,,,,,
basingstoke,51.26,-1.09,285.37,100,76,7.7,GB,1603147758
asau,46.43,26.4,277.15,0,93,0.5,RO,1603147758
campoverde,-8.48,-74.81,302.15,40,66,2.6,PE,1603147758
saint-joseph,-21.37,55.62,294.15,20,64,2.1,RE,1603147698
norman wells,65.28,-126.83,266.7,6,83,4.2,CA,1603147758
ribeira grande,38.52,-28.7,291.08,50,68,13.34,PT,1603147485
xiaoshi,41.3,124.12,283.15,2,81,2,CN,1603147758
kodiak,57.79,-152.41,281.15,90,65,4.6,US,1603147758
swellendam,-34.02,20.44,288.15,100,62,3.6,ZA,1603147759
fortuna,40.6,-124.16,289.26,40,82,6.7,US,1603147759
saryshagan,,,,,,,,
carmarthen,51.86,-4.31,286.15,100,82,8.2,GB,1603147759
bonthe,7.53,-12.51,298.8,99,88,2.18,SL,1603147759
evensk,61.95,159.23,275.57,96,93,10.67,RU,1603147759
yulara,-25.24,130.99,293.15,28,77,5.7,AU,1603147759
cabo san lucas,22.89,-109.91,305.93,5,59,5.1,MX,1603147462
hatillo,18.49,-66.83,300.93,1,74,2.1,PR,1603147759
shaunavon,49.65,-108.42,269.3,49,94,6,CA,1603147759
amga,60.9,131.96,260.54,79,94,1.56,RU,1603147759
vao,-22.67,167.48,296.2,90,77,7.93,NC,1603147728
trinidad,-14.83,-64.9,301.15,90,69,7.7,BO,1603147759
illoqqortoormiut,,,,,,,,
srednekolymsk,67.45,153.68,264.93,23,96,0.48,RU,1603147759
sarangani,5.4,125.46,301.02,100,78,4.96,PH,1603147759
grand river south east,,,,,,,,
severo-kurilsk,50.68,156.12,278.32,70,66,4.4,RU,1603147759
buenavista,8.98,125.41,299.18,97,86,1.51,PH,1603147759
niono,14.25,-5.99,304.05,0,19,3.56,ML,1603147759
victoria,22.29,114.16,295.93,12,75,3.86,HK,1603147583
galion,40.73,-82.79,284.15,90,100,1.5,US,1603147759
mamakan,57.82,114,269.58,100,93,1.91,RU,1603147759
pontes e lacerda,-15.23,-59.34,298.05,63,73,1.72,BR,1603147759
vaitupu,,,,,,,,
lagunas,-5.23,-75.68,302.14,68,60,0.96,PE,1603147759
souillac,-20.52,57.52,296.15,40,78,4.6,MU,1603147759
aquin,18.28,-73.4,300.08,86,77,1.85,HT,1603147759
ilulissat,69.22,-51.1,278.15,100,52,5.7,GL,1603147711
voh,-20.97,164.7,301.55,39,48,1.08,NC,1603147759
shiyan,32.65,110.78,286.46,99,69,1.2,CN,1603147759
riyadh,24.69,46.72,293.15,0,23,1.5,SA,1603147719
ucluelet,48.93,-125.55,288.15,75,82,5.1,CA,1603147760
sayyan,15.17,44.32,283.01,0,45,1.94,YE,1603147483
fallon,39.47,-118.78,298.71,20,17,2.6,US,1603147760
hamilton,39.18,-84.53,286.15,90,93,1.22,US,1603147338
panacan,9.25,118.41,298.15,90,94,2.1,PH,1603147760
quibdo,5.69,-76.66,295.7,100,97,0.92,CO,1603147760
saint anthony,45.02,-93.22,274.26,90,80,2.1,US,1603147621
te anau,-45.42,167.72,284.73,16,51,2.2,NZ,1603147690
ugoofaaru,5.67,73,300.49,3,81,5.4,MV,1603147604
quatre cocos,-20.21,57.76,296.15,40,78,4.6,MU,1603147760
baruun-urt,46.68,113.28,279.56,100,51,7.36,MN,1603147760
pergamino,-33.89,-60.57,290.37,85,80,1.79,AR,1603147622
satitoa,,,,,,,,
knysna,-34.04,23.05,287.15,100,87,4.6,ZA,1603147760
port hedland,-20.32,118.57,294.15,0,94,2.6,AU,1603147760
alekseyevka,50.63,38.69,277.51,0,79,3.32,RU,1603147760
broken hill,-31.95,141.43,290.15,49,39,4.6,AU,1603147558
rabo de peixe,37.8,-25.58,287.15,40,82,3.1,PT,1603147760
pacifica,37.61,-122.49,297.04,90,87,3.1,US,1603147760
qaanaaq,77.48,-69.36,273.55,54,86,5.06,GL,1603147683
ambon,-3.7,128.18,298.15,40,94,2.6,ID,1603147760
sakakah,29.97,40.21,292.15,0,15,2.6,SA,1603147760
nagorsk,59.32,50.81,274.16,99,94,2.97,RU,1603147760
upata,8.01,-62.4,303.71,82,68,1.79,VE,1603147760
libreville,0.39,9.45,300.15,75,83,3.1,GA,1603147760
christchurch,-43.53,172.63,288.71,44,62,6.2,NZ,1603147502
raga,8.46,25.68,294.5,0,89,0.28,SS,1603147760
benito juarez,19.39,-99.17,297.15,75,27,5.7,MX,1603147760
chihuahua,28.5,-106,305.15,5,17,4.6,MX,1603147635
henties bay,-22.12,14.28,287.04,0,88,1.34,NA,1603147507
windsor,42.3,-83.02,282.04,90,87,2.6,CA,1603147529
mitsamiouli,-11.38,43.28,298.47,8,74,0.49,KM,1603147760
schwarzenbach,49.73,12,274.82,20,92,1.32,DE,1603147760
mao,39.89,4.27,289.15,21,77,3.6,ES,1603147761
taquari,-29.8,-51.86,294.82,0,76,0.45,BR,1603147761
sao felix do xingu,-6.64,-51.99,302.01,88,45,0.64,BR,1603147761
sitka,57.05,-135.33,280.15,75,75,2.6,US,1603147749
luba,3.46,8.55,298.15,40,100,3.1,GQ,1603147761
tommot,58.96,126.29,270.67,100,97,2.25,RU,1603147761
nuevo progreso,23.17,-97.95,303.15,18,58,3.13,MX,1603147761
scottsbluff,41.87,-103.67,287.15,1,44,7.2,US,1603147761
kismayo,-0.36,42.55,299.03,12,83,5.75,SO,1603147761
adrar,20.5,-10.07,302.57,0,17,4.23,MR,1603147761
atuona,-9.8,-139.03,298.93,0,77,8.24,PF,1603147761
ca mau,9.18,105.15,297.92,96,91,0.77,VN,1603147761
singaparna,-7.35,108.11,295.31,99,89,0.51,ID,1603147761
edgecumbe,-37.98,176.83,290.93,100,84,1.79,NZ,1603147761
pingshan,22.99,114.71,294.82,0,74,1.34,CN,1603147761
cidreira,-30.18,-50.21,293.02,0,91,6.97,BR,1603147518
faanui,-16.48,-151.75,299.27,1,80,8.55,PF,1603147679
rosario oeste,-14.84,-56.43,298.46,92,70,1.22,BR,1603147761
maldonado,-34.67,-54.92,292.59,75,88,8.2,UY,1603147650
vanavara,60.34,102.28,269.12,100,97,6.45,RU,1603147761
kassala,15.45,36.4,300.72,0,41,4.12,SD,1603147761
takaungu,-3.68,39.86,298.15,20,88,2.1,KE,1603147761
tondano,1.3,124.91,297.15,20,94,0.5,ID,1603147761
hihifo,,,,,,,,
ternate,0.8,127.4,301.02,92,75,3.7,ID,1603147761
paamiut,61.99,-49.67,278.4,100,75,7.35,GL,1603147761
key biscayne,25.69,-80.16,301.15,90,74,6.7,US,1603147761
puerto palomas,31.77,-107.62,304.15,1,5,5.1,MX,1603147761
kabo,7.7,18.63,295.87,38,77,0.6,CF,1603147761
hofn,64.25,-15.21,277.15,77,72,5.3,IS,1603147761
asfi,32.3,-9.24,293.42,84,65,4.02,MA,1603147761
port macquarie,-31.43,152.92,294.82,75,63,0.45,AU,1603147624
cap malheureux,-19.98,57.61,294.82,16,77,1.34,MU,1603147762
laguna,38.42,-121.42,305.37,1,22,2.6,US,1603147762
altay,47.87,88.12,272.36,75,75,0.66,CN,1603147762
dien bien,,,,,,,,
valparaiso,-33.04,-71.63,292.15,6,58,7.7,CL,1603147108
cuamba,-14.8,36.54,296.14,1,37,1.37,MZ,1603147762
wangqing,43.32,129.76,280.59,0,66,0.57,CN,1603147762
shuangcheng,45.35,126.28,277.15,3,80,3,CN,1603147762
anadyr,64.75,177.48,275.15,75,69,4,RU,1603147762
katsuura,35.13,140.3,288.15,100,76,7.2,JP,1603147762
wronki,52.71,16.38,280.37,12,93,2.1,PL,1603147762
buchanan,5.88,-10.05,298.64,95,89,3.11,LR,1603147762
codrington,-38.27,141.97,285.45,10,76,1.13,AU,1603147762
iqaluit,63.75,-68.51,272.04,75,85,3.1,CA,1603147684
los llanos de aridane,28.66,-17.92,300.15,91,61,1.5,ES,1603147473
tuggurt,,,,,,,,
san patricio,28.02,-97.52,304.15,20,62,8.2,US,1603147709
flinders,-34.58,150.86,292.04,75,72,1.34,AU,1603147491
portland,45.52,-122.68,291.48,75,63,4.1,US,1603147736
chuy,-33.7,-53.46,292.91,0,75,2.84,UY,1603147629
barguzin,53.62,109.62,271.74,100,91,3.86,RU,1603147762
muros,42.78,-9.06,289.82,91,86,5.36,ES,1603147762
coronel,-37.02,-73.13,287.15,0,67,8.7,CL,1603147762
ulladulla,-35.35,150.47,290.37,75,72,3.6,AU,1603147687
port moresby,-9.44,147.18,301.05,99,76,1.73,PG,1603147762
north bend,43.41,-124.22,290.15,1,72,6.7,US,1603147762
kosh-agach,50,88.67,265.84,75,79,1.05,RU,1603147762
asayita,,,,,,,,
merke,42.87,73.18,285.7,0,31,1.02,KZ,1603147762
ondorhaan,,,,,,,,
belur,13.17,75.87,291.8,93,97,2.18,IN,1603147762
olinda,-8.01,-34.86,300.15,40,69,3.6,BR,1603147762
carutapera,-1.2,-46.02,299.41,34,80,2.93,BR,1603147594
lock haven,41.14,-77.45,287.04,100,97,1.08,US,1603147763
mabaruma,8.2,-59.78,298.96,93,82,2.44,GY,1603147763
gimli,50.63,-96.99,274.82,88,98,1.79,CA,1603147763
jambi,-1.6,103.62,296.01,86,98,1.57,ID,1603147763
saskylakh,71.92,114.08,267.18,90,97,1.99,RU,1603147687
champerico,14.3,-91.92,303.15,75,74,4.1,GT,1603147763
pasighat,28.07,95.33,295.09,61,86,0.89,IN,1603147763
clyde river,70.47,-68.59,274.15,75,97,7.2,CA,1603147739
kota belud,6.35,116.43,297.15,20,94,1.5,MY,1603147468
laurel,39.1,-76.85,292.59,1,68,1.5,US,1603147763
longlac,,,,,,,,
puerto cabezas,14.04,-83.39,304.15,75,74,3.1,NI,1603147763
nichinan,31.6,131.37,287.15,40,82,3.6,JP,1603147763
karratha,-20.74,116.85,293.73,0,65,3.15,AU,1603147550
coos bay,43.37,-124.22,290.15,1,72,6.7,US,1603147763
huaihua,27.55,109.96,286.19,90,74,1.43,CN,1603147763
ancud,-41.87,-73.82,283.71,0,66,3.1,CL,1603147763
pemba,-12.97,40.52,297.15,75,94,1.5,MZ,1603147763
bluff,-46.6,168.33,282.04,88,87,3.13,NZ,1603147763
gravdal,68.12,13.5,276.45,57,69,2.13,NO,1603147763
krsko,45.96,15.49,282.04,90,100,0.81,SI,1603147763
hope,33.67,-93.59,300.37,49,62,0.89,US,1603147763
celestun,20.87,-90.4,300.61,5,81,6.86,MX,1603147763
mys shmidta,,,,,,,,
longyearbyen,78.22,15.64,271.15,75,74,4.6,SJ,1603147478
aksu,41.12,80.26,281.92,0,48,1.73,CN,1603147763
silvan,38.14,41.01,286.15,21,47,0.5,TR,1603147763
richards bay,-28.78,32.04,294.16,37,88,0.57,ZA,1603147481
praia da vitoria,38.73,-27.07,289.15,40,82,13.72,PT,1603147763
hambantota,6.12,81.12,298.15,40,100,4.1,LK,1603147763
camocim,-2.9,-40.84,299.61,10,73,8.07,BR,1603147763
teplyk,48.67,29.75,278.41,0,87,2.94,UA,1603147763
belmonte,-15.86,-38.88,297.15,20,73,1.5,BR,1603147763
safwah,,,,,,,,
bonavista,48.65,-53.11,283.15,92,82,1.79,CA,1603147763
bandarbeyla,9.49,50.81,298.47,0,74,2.35,SO,1603147764
muzhi,65.37,64.67,264.48,67,97,0.78,RU,1603147764
moussoro,13.64,16.49,304.64,0,14,2.94,TD,1603147764
rundu,-17.93,19.77,294.03,0,22,1.24,NA,1603147764
ust-omchug,61.15,149.63,263.6,100,91,2.7,RU,1603147764
udobnaya,44.19,41.55,283.4,77,79,2.92,RU,1603147764
belem,-1.46,-48.5,297.15,40,94,2.6,BR,1603147597
rongcheng,30.63,117.85,285.28,0,86,1.37,CN,1603147764
esperance,-33.87,121.9,288.15,90,100,4.1,AU,1603147671
chumikan,54.72,135.31,271.89,0,84,10.65,RU,1603147474
pangnirtung,66.15,-65.71,274.15,90,74,2.6,CA,1603147504
cayenne,4.93,-52.33,301.15,42,78,2.1,GF,1603147764
novyy urgal,51.07,132.56,269.83,3,84,0.66,RU,1603147764
batemans bay,-35.72,150.18,290.93,95,68,1.74,AU,1603147620
davidson,36.15,-86.78,297.15,75,64,4.1,US,1603147737
samusu,,,,,,,,
luzhou,28.87,105.44,287.66,100,91,2.38,CN,1603147764
tessalit,20.2,1.01,300.96,0,16,4.05,ML,1603147764
taoudenni,22.68,-3.98,301.23,0,21,6.33,ML,1603147764
cabanas,22.98,-82.92,296.15,90,100,2.6,CU,1603147764
aksarka,66.56,67.8,263.1,0,94,1.94,RU,1603147764
cherat,33.82,71.89,291.15,0,59,2.1,PK,1603147764
tiznit,29.58,-9.5,294.56,27,33,2.09,MA,1603147764
constitucion,-35.33,-72.42,285.88,8,67,7.2,CL,1603147704
prince rupert,54.32,-130.32,282.15,90,93,3.6,CA,1603147502
san quintin,30.48,-115.95,297.65,0,59,9.41,MX,1603147764
rocha,-34.48,-54.33,291.83,16,86,2.79,UY,1603147764
beringovskiy,63.05,179.32,277,83,80,4.75,RU,1603147764
maumere,-8.62,122.21,300.52,9,74,1.48,ID,1603147645
cururupu,-1.83,-44.87,298.19,83,84,1.83,BR,1603147764
gandai,21.67,81.1,296.05,21,80,1.33,IN,1603147764
tezpur,26.63,92.8,295.87,32,92,2.25,IN,1603147765
yarada,17.65,83.27,299.15,75,100,1,IN,1603147765
anloga,5.79,0.9,299.15,20,88,3.1,GH,1603147765
tuatapere,-46.13,167.68,282.04,58,87,3.13,NZ,1603147715
ahipara,-35.17,173.17,291.28,99,67,4.98,NZ,1603147600
rayong,12.83,101.43,297.15,75,94,2.1,TH,1603147765
ilabaya,-17.42,-70.51,290.26,4,46,0.63,PE,1603147765
ji-parana,,,,,,,,
sfantu gheorghe,45.87,25.78,277.04,0,86,0.5,RO,1603147765
kamenskoye,,,,,,,,
pacific grove,36.62,-121.92,291.15,1,68,4.1,US,1603147765
belaya gora,68.53,146.42,261.88,87,94,1.7,RU,1603147765
wagar,16.15,36.2,300.16,0,46,4.62,SD,1603147765
merauke,-8.47,140.33,299.79,100,82,4.44,ID,1603147565
maceio,-9.67,-35.74,297.15,36,83,3.1,BR,1603147564
rockingham,42.97,-71.1,285.37,94,75,1.42,US,1603147765
saleaula,,,,,,,,
hornepayne,49.21,-84.77,271.18,41,95,2.04,CA,1603147765
kuche,,,,,,,,
novaya ladoga,60.1,32.3,274.82,99,89,5.36,RU,1603147765
marystown,47.17,-55.15,285.93,76,100,2.56,CA,1603147765
atar,20.52,-13.05,303.66,0,23,3.61,MR,1603147765
shanting,35.08,117.46,284.71,78,62,1.71,CN,1603147765
kem,64.96,34.58,275.45,100,81,7.97,RU,1603147765
anori,-3.77,-61.64,298.94,95,83,1.74,BR,1603147765
conceicao do araguaia,-8.26,-49.26,304.34,81,35,1.61,BR,1603147708
sassandra,4.95,-6.08,297.57,37,88,2.97,CI,1603147765
san rafael,-34.62,-68.33,294.19,0,23,4.66,AR,1603147765
tucuman,-26.82,-65.22,310.15,40,29,5.7,AR,1603147687
caravelas,-17.71,-39.25,296.22,100,77,2.61,BR,1603147476
champasak,14.75,106,294.76,84,99,0.59,LA,1603147765
mrirt,,,,,,,,
vardo,70.37,31.11,274.15,40,70,5.1,NO,1603147503
khasan,42.43,130.64,284.04,0,57,1.96,RU,1603147765
padang,-0.95,100.35,298.85,41,68,2.2,ID,1603147766
yushala,57.08,64.26,276.15,40,86,2,RU,1603147766
capreol,46.71,-80.92,277.59,94,85,1.53,CA,1603147766
dno,57.83,29.96,275.35,100,92,3.09,RU,1603147766
cheuskiny,,,,,,,,
pangai,-19.8,-174.35,298.15,20,65,5.1,TO,1603147766
saint-francois,46.42,3.91,287.15,80,67,4.6,FR,1603147766
coquimbo,-29.95,-71.34,287.15,20,76,6.7,CL,1603147766
urengoy,65.97,78.37,268.93,97,98,3.4,RU,1603147766
haines junction,60.75,-137.51,272.36,100,73,0.48,CA,1603147766
kirovskiy,45.09,133.51,278.71,0,75,1.7,RU,1603147766
xinzhi,36.5,111.7,286.66,100,41,1.23,CN,1603147766
wenatchee,47.42,-120.31,290.15,20,42,6.2,US,1603147686
bairiki,1.33,172.98,302.15,75,79,4.1,KI,1603147766
vila franca do campo,37.72,-25.43,287.15,40,82,3.1,PT,1603147558
salalah,17.02,54.09,301.15,75,58,1.5,OM,1603147766
ponta delgada,37.73,-25.67,287.15,40,82,3.1,PT,1603147766
parkersburg,39.27,-81.56,288.71,90,93,1.17,US,1603147543
thiruvananthapuram,8.48,76.92,300.15,20,100,1.8,IN,1603147766
uberaba,-19.75,-47.93,294.04,100,87,4.33,BR,1603147766
bulaevo,54.91,70.44,281.57,100,73,3.6,KZ,1603147766
abnub,27.27,31.15,298.15,0,53,2.6,EG,1603147766
guerrero negro,27.98,-114.06,300.77,0,47,7.53,MX,1603147766
gushikawa,26.35,127.87,298.15,20,88,4.6,JP,1603147766
arraial do cabo,-22.97,-42.03,295.61,92,82,10.84,BR,1603147766
orgun,,,,,,,,
puebloviejo,10.99,-74.28,303.15,86,77,0.45,CO,1603147766
newtownards,54.59,-5.69,284.15,100,93,4.6,GB,1603147766
zhangye,38.93,100.45,278.23,20,57,0.97,CN,1603147766
mudgee,-32.59,149.59,290.15,11,67,3.6,AU,1603147766
coahuayana,18.73,-103.68,301.15,75,74,5.1,MX,1603147766
nykobing,,,,,,,,
keelung,25.13,121.74,297.04,75,88,4.6,TW,1603147766
sao joao da barra,-21.64,-41.05,295.8,100,82,6.06,BR,1603147767
sergeyevka,53.88,67.42,281.11,92,60,4.17,KZ,1603147767
khromtau,50.25,58.43,282.27,13,48,4.69,KZ,1603147767
warrnambool,-38.38,142.48,284.26,0,89,1.56,AU,1603147767
namatanai,-3.67,152.43,301.89,14,71,0.61,PG,1603147767
batouri,4.43,14.37,293.29,64,93,0.59,CM,1603147767
sulechow,52.08,15.63,280.37,12,42,1.66,PL,1603147767
tam ky,15.57,108.48,298.15,75,94,4.1,VN,1603147767
vallenar,-28.57,-70.76,291.63,0,38,1.25,CL,1603147767
ashdod,31.82,34.65,296.48,20,78,2.1,IL,1603147767
moroto,2.53,34.67,294.3,65,63,2,UG,1603147767
abu dhabi,24.47,54.37,299.15,0,74,1,AE,1603147767
seydi,39.48,62.91,286.19,0,33,4.05,TM,1603147767
fergus falls,46.28,-96.08,274.26,90,59,1.43,US,1603147767
mackay,-21.15,149.2,298.15,40,73,3.1,AU,1603147668
somerset west,-34.08,18.82,286.15,40,93,3.1,ZA,1603147767
zanesville,39.94,-82.01,287.15,90,93,2.1,US,1603147632
west bay,19.37,-81.42,301.48,20,78,2.6,KY,1603147767
san cristobal,7.77,-72.22,303.15,40,48,5.1,VE,1603147767
shevchenkove,49.7,37.17,277.15,1,93,3,UA,1603147767
progreso,21.28,-89.67,303.15,40,62,3.1,MX,1603147632
linxia,35.6,103.21,278.04,100,60,0.71,CN,1603147767
palabuhanratu,,,,,,,,
mursalimkino,55.04,58.56,281.29,87,89,1.55,RU,1603147767
zyryanka,65.75,150.85,264.34,82,96,2.89,RU,1603147767
half moon bay,37.46,-122.43,299.82,90,87,3.1,US,1603147767
great malvern,52.11,-2.33,284.82,100,83,0.89,GB,1603147767
alyangula,-13.85,136.42,300.15,55,83,3.1,AU,1603147767
batagay-alyta,67.8,130.41,262.78,100,90,0.72,RU,1603147767
finschhafen,-6.6,147.87,301.73,25,66,0.69,PG,1603147767
waingapu,-9.66,120.26,300.4,51,72,2.1,ID,1603147767
mujiayingzi,42.12,118.78,280.01,0,57,2.87,CN,1603147767
papar,5.73,115.93,297.15,20,94,1.5,MY,1603147768
opuwo,-18.06,13.84,292.45,0,31,2.18,NA,1603147768
kuusamo,65.97,29.18,272.15,75,86,4.1,FI,1603147768
zhigansk,66.77,123.37,264.79,100,96,4.91,RU,1603147704
zhenlai,45.85,123.3,280.63,37,56,5.33,CN,1603147768
malampaka,-3.13,33.53,296.25,35,59,1.56,TZ,1603147768
lokot,52.56,34.58,275.98,25,83,4.12,RU,1603147768
oussouye,12.48,-16.55,302.15,20,94,1,SN,1603147768
miri,4.41,114.01,297.15,40,94,1.5,MY,1603147768
znamenskoye,57.13,73.83,278.28,100,83,2.63,RU,1603147768
kokopo,-4.35,152.26,302.19,14,67,0.15,PG,1603147768
altenburg,50.98,12.45,278.15,41,86,2.6,DE,1603147768
wukari,7.85,9.78,297.52,51,88,2.08,NG,1603147768
tateyama,34.98,139.87,288.15,100,76,7.2,JP,1603147768
russell,32.35,-85.2,300.15,1,47,2.6,US,1603147483
pontianak,-0.03,109.33,298.18,85,90,1.4,ID,1603147617
salto,-31.38,-57.97,306.15,40,49,2.6,UY,1603147768
bubaque,11.28,-15.83,301.16,2,88,4.4,GW,1603147768
sorong,-0.88,131.25,299.34,100,81,3.91,ID,1603147527
roald,62.58,6.13,276.15,8,74,6.2,NO,1603147768
aksum,14.12,38.72,286.48,11,71,0.49,ET,1603147768
lichinga,-13.31,35.24,291.13,0,49,2.28,MZ,1603147768
agua blanca,14.5,-89.65,302.15,40,58,1.5,GT,1603147768
comodoro rivadavia,-45.87,-67.5,288.15,78,26,5.7,AR,1603147470
mahibadhoo,3.78,72.97,301,100,76,5.73,MV,1603147768
yurginskoye,56.82,67.39,277.49,64,91,2.39,RU,1603147768
aviles,43.55,-5.92,289.15,97,72,0.5,ES,1603147768
williamsburg,37.27,-76.71,294.15,40,82,2.56,US,1603147734
andenes,69.31,16.12,271.15,0,74,1.5,NO,1603147768
waipawa,-41.41,175.52,290.15,25,67,8.7,NZ,1603147768
rungata,,,,,,,,
kaeo,-35.1,173.78,291.87,100,63,4.61,NZ,1603147769
lanigan,51.85,-105.03,270.77,0,74,3.14,CA,1603147538
neiafu,-18.65,-173.98,299.15,40,69,4.6,TO,1603147769
maseru,-29.32,27.48,289.66,39,30,1.41,LS,1603147769
dhidhdhoo,6.88,73.1,300.47,13,78,5.78,MV,1603147694
nizhneyansk,,,,,,,,
cherskiy,68.75,161.3,266.14,14,94,1.54,RU,1603147769
atka,,,,,,,,
mandera,3.94,41.87,300.81,11,58,7.28,KE,1603147769
mahudha,22.82,72.93,301.15,20,88,0.77,IN,1603147638
pindwara,24.8,73.07,298.09,57,77,0.55,IN,1603147769
kupang,-10.17,123.58,296.15,20,78,1,ID,1603147769
enshi,30.3,109.48,286.67,100,85,1.42,CN,1603147769
doha,25.29,51.53,302.15,0,42,2.6,QA,1603147600
yerbogachen,61.28,108.01,268.89,99,94,5.39,RU,1603147769
chorbog,,,,,,,,
vanimo,-2.67,141.3,301.33,45,73,1.39,PG,1603147769
tabou,4.42,-7.35,298.31,78,82,3.01,CI,1603147769
yarim,14.3,44.38,282.62,0,46,2.13,YE,1603147769
pendencias,-5.26,-36.72,298.12,100,65,7.48,BR,1603147769
olafsvik,64.89,-23.71,277.11,88,74,3.58,IS,1603147769
hualmay,-11.1,-77.61,290.99,26,80,4.33,PE,1603147769
canutama,-6.53,-64.38,299.43,85,75,0.16,BR,1603147769
zalaegerszeg,46.84,16.84,280.15,57,87,1.5,HU,1603147769
morant bay,17.88,-76.41,300.15,75,78,9.8,JM,1603147484
kaseda,31.42,130.32,285.93,40,81,2.1,JP,1603147769
smila,49.22,31.89,278.68,0,86,2.95,UA,1603147769
jumla,29.27,82.18,281.59,0,55,2.22,NP,1603147769
teya,60.38,92.63,269.67,98,94,3.31,RU,1603147769
bud,39.45,-86.18,284.26,90,100,2.22,US,1603147769
kahului,20.89,-156.47,306.15,40,46,4.6,US,1603147563
azimur,,,,,,,,
tumannyy,,,,,,,,
celldomolk,47.26,17.15,282.15,47,70,2.1,HU,1603147769
tamandare,-8.76,-35.1,297.46,55,77,4.29,BR,1603147770
dwarka,22.24,68.97,301.92,5,78,4.09,IN,1603147770
oranjemund,-28.55,16.43,287.62,18,86,6.01,NA,1603147557
shimanovsk,52,127.7,272.5,62,92,4.37,RU,1603147770
malindi,-3.22,40.12,298.21,12,85,4.71,KE,1603147770
someshwar,13.5,75.07,298.15,40,88,0.27,IN,1603147770
bosaso,11.28,49.18,300.29,0,39,2.84,SO,1603147529
korla,41.76,86.15,279.82,0,85,1.2,CN,1603147770
jawhar,2.78,45.5,297.48,0,87,2.62,SO,1603147734
boo,59.33,18.28,273.15,60,86,2.1,SE,1603147770
guhagar,17.48,73.19,296.93,83,87,1.13,IN,1603147770
san juan,-31.54,-68.54,294.88,0,22,6.26,AR,1603147770
juazeiro,-9.41,-40.5,306.15,20,31,4.1,BR,1603147770
sao filipe,14.9,-24.5,301.46,28,65,1.62,CV,1603147770
qasigiannguit,68.82,-51.19,278.15,100,52,5.7,GL,1603147770
teneguiban,,,,,,,,
owando,-0.48,15.9,295.53,98,95,1.18,CG,1603147770
balgazyn,51,95.2,267.12,32,86,1.84,RU,1603147770
hyeres,43.12,6.12,287.59,20,93,1.5,FR,1603147770
takayama,36.13,137.25,285.15,40,81,1,JP,1603147770
meulaboh,4.14,96.13,297.63,75,83,1.87,ID,1603147479
monterey,36.25,-121.25,302.04,0,29,1.83,US,1603147770
tutoia,-2.76,-42.27,299.99,5,79,5.13,BR,1603147770
kralendijk,12.15,-68.27,303.15,40,74,7.7,BQ,1603147770
luwingu,-10.26,29.93,295.82,68,46,1.14,ZM,1603147770
san jose,37.34,-121.89,303.15,1,28,3.6,US,1603147483
moctezuma,29.8,-109.67,307.74,30,10,1.8,MX,1603147767
nyurba,63.28,118.33,266.58,61,97,3.62,RU,1603147770
awjilah,29.11,21.29,294.72,4,60,5.08,LY,1603147486
miramar,25.99,-80.23,300.37,75,83,9.3,US,1603147770
churapcha,62,132.43,259.76,96,95,1.82,RU,1603147770
porto murtinho,-21.7,-57.88,302.96,27,50,0.86,BR,1603147771
puerto madryn,-42.77,-65.04,288.46,0,32,6.25,AR,1603147717
constantine,36.37,6.61,283.15,0,71,1.61,DZ,1603147771
fukue,32.69,128.84,293.22,0,61,7.75,JP,1603147771
klaksvik,62.23,-6.59,277.15,14,86,2.6,FO,1603147713
bagan,54.1,77.66,277.82,100,65,5.54,RU,1603147771
port augusta,-32.5,137.77,290.93,100,77,1,AU,1603147771
aldan,58.6,125.39,268.71,100,98,2.1,RU,1603147771
hasaki,35.73,140.83,284.15,75,100,2.6,JP,1603147477
zhongshu,24.52,103.77,282.73,100,92,1.22,CN,1603147771
luchegorsk,46.48,134.26,276.07,0,78,0.83,RU,1603147771
winslow,35.02,-110.7,301.15,1,9,1.5,US,1603147556
warqla,,,,,,,,
isangel,-19.55,169.27,299.15,75,83,5.1,VU,1603147635
singarayakonda,15.25,80.03,299.83,100,84,3.23,IN,1603147771
nefteyugansk,61.1,72.6,273.15,75,98,4,RU,1603147771
chandbali,20.78,86.77,298.41,71,81,2.12,IN,1603147771
kitimat,54.05,-128.65,280.37,97,90,1.34,CA,1603147688
caranavi,-15.82,-67.55,293.47,73,83,0.52,BO,1603147771
balkanabat,39.51,54.37,287.06,0,36,0.19,TM,1603147732
boguchany,58.38,97.45,269.67,96,94,3.4,RU,1603147771
qiongshan,20.01,110.35,297.15,75,83,7,CN,1603147771
namtsy,62.72,129.67,258.15,40,84,1,RU,1603147771
mayo,38.89,-76.51,292.59,40,72,3.1,US,1603147544
bera,24.08,89.62,299.56,24,76,2.71,BD,1603147771
thunder bay,48.4,-89.32,274.82,98,64,2.05,CA,1603147714
havoysund,71,24.66,275.15,75,93,3.6,NO,1603147771
naze,28.37,129.48,297.15,40,83,8.7,JP,1603147771
nhulunbuy,-12.23,136.77,300.15,9,78,2.1,AU,1603147771
karakendzha,,,,,,,,
treinta y tres,-33.23,-54.38,296.35,0,72,1.53,UY,1603147771
miram shah,33.01,70.07,291.12,0,23,3.09,PK,1603147771
buin,-33.73,-70.75,297.15,100,31,3.1,CL,1603147481
we,,,,,,,,
juegang,32.32,121.19,289.47,0,69,3.09,CN,1603147771
severo-yeniseyskiy,60.37,93.04,267.79,99,97,3.76,RU,1603147772
jaisalmer,26.91,70.92,301.21,4,37,2.72,IN,1603147772
beloha,-25.17,45.05,290.55,0,92,1.58,MG,1603147772
talcahuano,-36.72,-73.12,287.15,0,67,8.7,CL,1603147673
faya,18.39,42.45,288.15,0,22,3.1,SA,1603147772
goma,-1.68,29.22,291.01,72,78,1.2,CD,1603147772
road town,18.42,-64.62,301.15,40,74,3.6,VG,1603147485
inirida,3.87,-67.92,299.3,87,79,0.73,CO,1603147497
solnechnyy,50.72,136.63,272.43,0,76,2.15,RU,1603147772
eureka,40.8,-124.16,289.26,90,93,4.3,US,1603147508
corinto,37.94,22.96,289.26,55,70,2.15,GR,1603147545
kaka,37.35,59.61,283.68,0,45,0.61,TM,1603147772
